{
	"data": [
		{
			"store_name": "7-Eleven #37343H",
			"longitude": "-71.153351",
			"latitude": "42.69289",
			"address": "390 S Union Street",
			"assistance_type": "snap_wic"
		},
		{
			"store_name": "Amable Super Market",
			"longitude": "-71.1577",
			"latitude": "42.718159",
			"address": "304 Jackson Street",
			"assistance_type": "snap_wic"
		},
		{
			"store_name": "Caballo Food Corp.",
			"longitude": "-71.151474",
			"latitude": "42.691254",
			"address": "69 Winthrop Ave",
			"assistance_type": "snap_wic"
		},
		{
			"store_name": "Cast-Mart, LLC",
			"longitude": "-71.174004",
			"latitude": "42.690216",
			"address": "606 Andover Street",
			"assistance_type": "snap_wic"
		},
		{
			"store_name": "CVS Pharmacy #1786",
			"longitude": "-71.171478",
			"latitude": "42.708828",
			"address": "266 Broadway",
			"assistance_type": "snap_wic"
		},
		{
			"store_name": "CVS Pharmacy #952",
			"longitude": "-71.161957",
			"latitude": "42.693943",
			"address": "205 South Broadway",
			"assistance_type": "snap_wic"
		},
		{
			"store_name": "Esmy Market Inc.",
			"longitude": "-71.158569",
			"latitude": "42.697514",
			"address": "110 Parker Street",
			"assistance_type": "snap_wic"
		},
		{
			"store_name": "Essex Market",
			"longitude": "-71.157722",
			"latitude": "42.707756",
			"address": "175 Essex Street",
			"assistance_type": "snap_wic"
		},
		{
			"store_name": "Fredy Mini Market, Inc.",
			"longitude": "-71.170029",
			"latitude": "42.70961",
			"address": "130 Franklin Street",
			"assistance_type": "snap_wic"
		},
		{
			"store_name": "Gigante Meat Market #2",
			"longitude": "-71.169601",
			"latitude": "42.720123",
			"address": "333 Lawrence Street",
			"assistance_type": "snap_wic"
		},
		{
			"store_name": "Gomez Meat Market LLC",
			"longitude": "-71.160324",
			"latitude": "42.691639",
			"address": "272 South Broadway",
			"assistance_type": "snap_wic"
		},
		{
			"store_name": "Jimenez Supermarket",
			"longitude": "-71.155579",
			"latitude": "42.71199",
			"address": "117 Newbury Street",
			"assistance_type": "snap_wic"
		},
		{
			"store_name": "La Fruteria Supermarket",
			"longitude": "-71.179405",
			"latitude": "42.712307",
			"address": "75 Manchester Street",
			"assistance_type": "snap_wic"
		},
		{
			"store_name": "Market Basket #5",
			"longitude": "-71.171823",
			"latitude": "42.702356",
			"address": "700 Essex Street",
			"assistance_type": "snap_wic"
		},
		{
			"store_name": "Papi Grocery Store",
			"longitude": "-71.153442",
			"latitude": "42.696461",
			"address": "205 South Union Street",
			"assistance_type": "snap_wic"
		},
		{
			"store_name": "Raquel Supermarket",
			"longitude": "-71.168915",
			"latitude": "42.719486",
			"address": "296 Lawrence Street",
			"assistance_type": "snap_wic"
		},
		{
			"store_name": "Rojas Food Market LLC",
			"longitude": "-71.172554",
			"latitude": "42.716045",
			"address": "269 Park Street",
			"assistance_type": "snap_wic"
		},
		{
			"store_name": "Suazo Market",
			"longitude": "-71.160309",
			"latitude": "42.687965",
			"address": "50 Inman Street",
			"assistance_type": "snap_wic"
		},
		{
			"store_name": "Tenares Grocery Inc.",
			"longitude": "-71.158478",
			"latitude": "42.718575",
			"address": "64 Berkeley Street",
			"assistance_type": "snap_wic"
		},
		{
			"store_name": "Union Supermarket II",
			"longitude": "-71.176079",
			"latitude": "42.706463",
			"address": "473 Haverhill Street",
			"assistance_type": "snap_wic"
		},
		{
			"store_name": "Union Supermarket Inc.",
			"longitude": "-71.153427",
			"latitude": "42.69598",
			"address": "239-241 Union Street",
			"assistance_type": "snap_wic"
		},
		{
			"store_name": "V&V Market Inc.",
			"longitude": "-71.153427",
			"latitude": "42.695377",
			"address": "273 South Union Street",
			"assistance_type": "snap_wic"
		},
		{
			"store_name": "Walgreens #3337",
			"longitude": "-71.169273",
			"latitude": "42.706287",
			"address": "138 Broadway",
			"assistance_type": "snap_wic"
		},
		{
			"store_name": "3 J Market",
			"longitude": "-71.170486",
			"latitude": "42.711632",
			"address": "88 Auburn St",
			"assistance_type": "snap"
		},
		{
			"store_name": "7-ELEVEN 33454B",
			"longitude": "-71.165619",
			"latitude": "42.707535",
			"address": "99 Hampshire St",
			"assistance_type": "snap"
		},
		{
			"store_name": "7-Eleven Store 34405B",
			"longitude": "-71.18959",
			"latitude": "42.704838",
			"address": "703 Haverhill St",
			"assistance_type": "snap"
		},
		{
			"store_name": "Abreu Market Inc",
			"longitude": "-71.162537",
			"latitude": "42.691517",
			"address": "34 Brookfield St",
			"assistance_type": "snap"
		},
		{
			"store_name": "Bonanza Market Inc",
			"longitude": "-71.157799",
			"latitude": "42.713905",
			"address": "179 Jackson St",
			"assistance_type": "snap"
		},
		{
			"store_name": "Broadway Corner Mart",
			"longitude": "-71.15464",
			"latitude": "42.68346",
			"address": "501 S Broadway",
			"assistance_type": "snap"
		},
		{
			"store_name": "Cardenes Market",
			"longitude": "-71.171555",
			"latitude": "42.71941",
			"address": "513 Hampshire St",
			"assistance_type": "snap"
		},
		{
			"store_name": "Carlos Grocery",
			"longitude": "-71.167274",
			"latitude": "42.714973",
			"address": "51 Myrtle St",
			"assistance_type": "snap"
		},
		{
			"store_name": "Carniceria Market",
			"longitude": "-71.157906",
			"latitude": "42.711418",
			"address": "88 Jackson St",
			"assistance_type": "snap"
		},
		{
			"store_name": "Castillo Food Enterprises Inc",
			"longitude": "-71.168068",
			"latitude": "42.718899",
			"address": "271 Lawrence St",
			"assistance_type": "snap"
		},
		{
			"store_name": "Cavali Meat Market Inc",
			"longitude": "-71.1744",
			"latitude": "42.702168",
			"address": "775 Essex St",
			"assistance_type": "snap"
		},
		{
			"store_name": "City Mart",
			"longitude": "-71.180656",
			"latitude": "42.704563",
			"address": "576 Haverhill St",
			"assistance_type": "snap"
		},
		{
			"store_name": "Corporation Market",
			"longitude": "-71.15564",
			"latitude": "42.71254",
			"address": "136 Newbury St",
			"assistance_type": "snap"
		},
		{
			"store_name": "Cumberland Farms 6742",
			"longitude": "-71.158882",
			"latitude": "42.689598",
			"address": "320 S Broadway",
			"assistance_type": "snap"
		},
		{
			"store_name": "Dollar Tree 6095",
			"longitude": "-71.162727",
			"latitude": "42.695835",
			"address": "138 S Broadway",
			"assistance_type": "snap"
		},
		{
			"store_name": "E Market 2",
			"longitude": "-71.150185",
			"latitude": "42.702663",
			"address": "265 Merrimack St",
			"assistance_type": "snap"
		},
		{
			"store_name": "El Arca Supermarket",
			"longitude": "-71.172241",
			"latitude": "42.709766",
			"address": "296 Broadway",
			"assistance_type": "snap"
		},
		{
			"store_name": "El Gustaso Supermarket And Restaurant Inc",
			"longitude": "-71.17215",
			"latitude": "42.709667",
			"address": "298 Broadway",
			"assistance_type": "snap"
		},
		{
			"store_name": "El Mercadito Grocery Store",
			"longitude": "-71.170357",
			"latitude": "42.714943",
			"address": "49 Walnut St",
			"assistance_type": "snap"
		},
		{
			"store_name": "El Pilon Supermarket",
			"longitude": "-71.168884",
			"latitude": "42.711399",
			"address": "262 Hampshire St",
			"assistance_type": "snap"
		},
		{
			"store_name": "El Rincon Dominicana 1",
			"longitude": "-71.173996",
			"latitude": "42.702248",
			"address": "773 Essex St",
			"assistance_type": "snap"
		},
		{
			"store_name": "Elvis's Variety",
			"longitude": "-71.165863",
			"latitude": "42.69725",
			"address": "9 Newton St",
			"assistance_type": "snap"
		},
		{
			"store_name": "Emmanuel Market",
			"longitude": "-71.163055",
			"latitude": "42.716637",
			"address": "99 Park St",
			"assistance_type": "snap"
		},
		{
			"store_name": "Family Dollar 3462",
			"longitude": "-71.150497",
			"latitude": "42.690643",
			"address": "69B Winthrop Ave",
			"assistance_type": "snap"
		},
		{
			"store_name": "Family Dollar Store 11535",
			"longitude": "-71.158844",
			"latitude": "42.689548",
			"address": "320 S Broadway",
			"assistance_type": "snap"
		},
		{
			"store_name": "Fernandez Grocery Inc",
			"longitude": "-71.168365",
			"latitude": "42.710781",
			"address": "232 Hampshire St",
			"assistance_type": "snap"
		},
		{
			"store_name": "Frias Mini Market",
			"longitude": "-71.156342",
			"latitude": "42.694122",
			"address": "180 Boxford St",
			"assistance_type": "snap"
		},
		{
			"store_name": "GEMELAS MARKET",
			"longitude": "-71.153374",
			"latitude": "42.709881",
			"address": "54 Union St",
			"assistance_type": "snap"
		},
		{
			"store_name": "Go 1 Dollar 4",
			"longitude": "-71.149765",
			"latitude": "42.690166",
			"address": "73 Winthrop Ave",
			"assistance_type": "snap"
		},
		{
			"store_name": "Gomez Market",
			"longitude": "-71.15461",
			"latitude": "42.717476",
			"address": "294 Prospect St",
			"assistance_type": "snap"
		},
		{
			"store_name": "Groundwork Lawrence Inc (Saturday Market)",
			"longitude": "-71.14492",
			"latitude": "42.687401",
			"address": "Wintrhop Rd",
			"assistance_type": "snap"
		},
		{
			"store_name": "Groundwork Lawrence Inc (Wednesday Market 2)",
			"longitude": "-71.163261",
			"latitude": "42.706955",
			"address": "372 Essex St",
			"assistance_type": "snap"
		},
		{
			"store_name": "Hernandez Market",
			"longitude": "-71.146477",
			"latitude": "42.699711",
			"address": "47 Loring St",
			"assistance_type": "snap"
		},
		{
			"store_name": "J&J Mini Market Inc",
			"longitude": "-71.154961",
			"latitude": "42.718391",
			"address": "324B Prospect St",
			"assistance_type": "snap"
		},
		{
			"store_name": "Jackie's Market LLC",
			"longitude": "-71.178589",
			"latitude": "42.717651",
			"address": "651 Broadway",
			"assistance_type": "snap"
		},
		{
			"store_name": "Jacqueline Supermarket Corp",
			"longitude": "-71.163078",
			"latitude": "42.69714",
			"address": "199 Salem St",
			"assistance_type": "snap"
		},
		{
			"store_name": "Jamay Inc",
			"longitude": "-71.173775",
			"latitude": "42.715973",
			"address": "309 Park St",
			"assistance_type": "snap"
		},
		{
			"store_name": "Jan Grocery Store, Inc.",
			"longitude": "-71.167519",
			"latitude": "42.717857",
			"address": "76 Bennington St",
			"assistance_type": "snap"
		},
		{
			"store_name": "Javier Market",
			"longitude": "-71.142296",
			"latitude": "42.720451",
			"address": "311 E Haverhill St",
			"assistance_type": "snap"
		},
		{
			"store_name": "Kiu Management Llc",
			"longitude": "-71.168457",
			"latitude": "42.707695",
			"address": "100 Franklin St",
			"assistance_type": "snap"
		},
		{
			"store_name": "L. Lawrence Store",
			"longitude": "-71.153442",
			"latitude": "42.698719",
			"address": "107 S Union St",
			"assistance_type": "snap"
		},
		{
			"store_name": "La Carniceria Supermarket Corp",
			"longitude": "-71.153343",
			"latitude": "42.697594",
			"address": "164 S Union St",
			"assistance_type": "snap"
		},
		{
			"store_name": "La Economia Market",
			"longitude": "-71.175591",
			"latitude": "42.706612",
			"address": "470 Haverhill St",
			"assistance_type": "snap"
		},
		{
			"store_name": "La Nena Supermarket",
			"longitude": "-71.179924",
			"latitude": "42.703903",
			"address": "64 Milton St",
			"assistance_type": "snap"
		},
		{
			"store_name": "Lawrence Fuel",
			"longitude": "-71.140038",
			"latitude": "42.684776",
			"address": "233 Winthrop Ave",
			"assistance_type": "snap"
		},
		{
			"store_name": "Leourys Market",
			"longitude": "-71.153496",
			"latitude": "42.711441",
			"address": "101 Union St",
			"assistance_type": "snap"
		},
		{
			"store_name": "Lyr Minimarket Inc",
			"longitude": "-71.149048",
			"latitude": "42.714581",
			"address": "486 Howard St",
			"assistance_type": "snap"
		},
		{
			"store_name": "Mi Pais Market Inc",
			"longitude": "-71.174362",
			"latitude": "42.690105",
			"address": "610 Andover St",
			"assistance_type": "snap"
		},
		{
			"store_name": "Mt. Vernon Convenience",
			"longitude": "-71.173424",
			"latitude": "42.685162",
			"address": "58 Beacon St",
			"assistance_type": "snap"
		},
		{
			"store_name": "Multiple Service Inc",
			"longitude": "-71.157837",
			"latitude": "42.71254",
			"address": "119 Jackson St",
			"assistance_type": "snap"
		},
		{
			"store_name": "Newbury St Supermarket Inc",
			"longitude": "-71.155556",
			"latitude": "42.71299",
			"address": "169 Newbury St",
			"assistance_type": "snap"
		},
		{
			"store_name": "Ocoa Market Inc",
			"longitude": "-71.171417",
			"latitude": "42.717442",
			"address": "461 Hampshire St",
			"assistance_type": "snap"
		},
		{
			"store_name": "Park Street Convenience",
			"longitude": "-71.162071",
			"latitude": "42.716667",
			"address": "75 Park St",
			"assistance_type": "snap"
		},
		{
			"store_name": "Pescaderia Los Asbestero",
			"longitude": "-71.174934",
			"latitude": "42.707218",
			"address": "2 Railroad St",
			"assistance_type": "snap"
		},
		{
			"store_name": "Popular Market Store Inc",
			"longitude": "-71.159355",
			"latitude": "42.690163",
			"address": "319 S Broadway",
			"assistance_type": "snap"
		},
		{
			"store_name": "Quezada Grocery",
			"longitude": "-71.176529",
			"latitude": "42.701767",
			"address": "857 Essex St",
			"assistance_type": "snap"
		},
		{
			"store_name": "Quile Market And Restaurant",
			"longitude": "-71.155556",
			"latitude": "42.711174",
			"address": "89A Newbury St",
			"assistance_type": "snap"
		},
		{
			"store_name": "Rd Supermarkert Inc",
			"longitude": "-71.173569",
			"latitude": "42.711327",
			"address": "354 Broadway",
			"assistance_type": "snap"
		},
		{
			"store_name": "Richdale Convenience Store",
			"longitude": "-71.163895",
			"latitude": "42.698177",
			"address": "53 S Broadway",
			"assistance_type": "snap"
		},
		{
			"store_name": "Rite Aid 10113",
			"longitude": "-71.163155",
			"latitude": "42.707024",
			"address": "365 Essex St",
			"assistance_type": "snap"
		},
		{
			"store_name": "Saigon Market",
			"longitude": "-71.153351",
			"latitude": "42.69487",
			"address": "298 S Union St",
			"assistance_type": "snap"
		},
		{
			"store_name": "Sammy's Market",
			"longitude": "-71.161789",
			"latitude": "42.693775",
			"address": "208 S Broadway",
			"assistance_type": "snap"
		},
		{
			"store_name": "Sams Food Store",
			"longitude": "-71.174446",
			"latitude": "42.712528",
			"address": "389 Broadway",
			"assistance_type": "snap"
		},
		{
			"store_name": "Santiago Market And Flowers",
			"longitude": "-71.161255",
			"latitude": "42.707756",
			"address": "293 Essex St",
			"assistance_type": "snap"
		},
		{
			"store_name": "Sebas Market",
			"longitude": "-71.168999",
			"latitude": "42.705784",
			"address": "88 Broadway",
			"assistance_type": "snap"
		},
		{
			"store_name": "Shin Shin Oriental Grocery",
			"longitude": "-71.15274",
			"latitude": "42.685867",
			"address": "603 S Union St",
			"assistance_type": "snap"
		},
		{
			"store_name": "Speedway 2407",
			"longitude": "-71.153046",
			"latitude": "42.689182",
			"address": "500 S Union St",
			"assistance_type": "snap"
		},
		{
			"store_name": "Speedway 2499",
			"longitude": "-71.177948",
			"latitude": "42.716885",
			"address": "615 Broadway",
			"assistance_type": "snap"
		},
		{
			"store_name": "Tedeschi's Food Shop 469",
			"longitude": "-71.17334",
			"latitude": "42.690102",
			"address": "3 Beacon St",
			"assistance_type": "snap"
		},
		{
			"store_name": "Tony's Convenience",
			"longitude": "-71.157829",
			"latitude": "42.695679",
			"address": "191A Parker St",
			"assistance_type": "snap"
		},
		{
			"store_name": "Tower Hill Mini Mart Inc",
			"longitude": "-71.181976",
			"latitude": "42.700645",
			"address": "99 Ames St",
			"assistance_type": "snap"
		},
		{
			"store_name": "Tropical Mini Market Corp",
			"longitude": "-71.153419",
			"latitude": "42.698505",
			"address": "121 S Union St",
			"assistance_type": "snap"
		},
		{
			"store_name": "Union Supermarket 111",
			"longitude": "-71.157936",
			"latitude": "42.719444",
			"address": "304 Jackson St",
			"assistance_type": "snap"
		},
		{
			"store_name": "Villar Supermarket 1",
			"longitude": "-71.157501",
			"latitude": "42.707771",
			"address": "165 Essex St",
			"assistance_type": "snap"
		},
		{
			"store_name": "Walgreen's 04571",
			"longitude": "-71.161316",
			"latitude": "42.693123",
			"address": "220 S Broadway",
			"assistance_type": "snap"
		},
		{
			"store_name": "Gigante Meat Market",
			"longitude": "-71.176013",
			"latitude": "42.734556",
			"address": "139 Park Street",
			"assistance_type": "wic"
		},
		{
			"store_name": "Gomez Convenience Inc.",
			"longitude": "-71.174098",
			"latitude": "42.697751",
			"address": "252 Water Street",
			"assistance_type": "wic"
		},
		{
			"store_name": "Perrotta's Super Drug",
			"longitude": "-71.154475",
			"latitude": "42.717183",
			"address": "292 Prospect Street",
			"assistance_type": "wic"
		},
		{
			"store_name": "RRS El Pilon Inc.",
			"longitude": "-71.169125",
			"latitude": "42.711405",
			"address": "262 Hampshire Street",
			"assistance_type": "wic"
		},
		{
			"store_name": "Two Brothers Market",
			"longitude": "-71.168692",
			"latitude": "42.707823",
			"address": "100 Franklin St",
			"assistance_type": "none"
		},
		{
			"store_name": "Gonzalez Market",
			"longitude": "-71.153388",
			"latitude": "42.711671",
			"address": "101 Union St",
			"assistance_type": "none"
		},
		{
			"store_name": "Fernandez Market",
			"longitude": "-71.156299",
			"latitude": "42.707687",
			"address": "102 Essex St",
			"assistance_type": "none"
		},
		{
			"store_name": "La Dulce Abuelita",
			"longitude": "-71.163459",
			"latitude": "42.697003",
			"address": "111 S Broadway",
			"assistance_type": "none"
		},
		{
			"store_name": "Dominican Market",
			"longitude": "-71.157682",
			"latitude": "42.712833",
			"address": "119 Jackson St",
			"assistance_type": "none"
		},
		{
			"store_name": "Mora Grocery",
			"longitude": "-71.170125",
			"latitude": "42.709611",
			"address": "130 Franklin St",
			"assistance_type": "none"
		},
		{
			"store_name": "South Broadway Market",
			"longitude": "-71.16311",
			"latitude": "42.696105",
			"address": "135 S Broadway",
			"assistance_type": "none"
		},
		{
			"store_name": "Corporation Market",
			"longitude": "-71.155815",
			"latitude": "42.712712",
			"address": "136 Newbury St",
			"assistance_type": "none"
		},
		{
			"store_name": "Nizao Food Market",
			"longitude": "-71.17147",
			"latitude": "42.699611",
			"address": "140 Water St",
			"assistance_type": "none"
		},
		{
			"store_name": "Sons Somnang Market",
			"longitude": "-71.153515",
			"latitude": "42.698193",
			"address": "141 S Union St",
			"assistance_type": "none"
		},
		{
			"store_name": "Gas N Go",
			"longitude": "-71.148801",
			"latitude": "42.689712",
			"address": "150 Winthrop Ave",
			"assistance_type": "none"
		},
		{
			"store_name": "Strella Market",
			"longitude": "-71.174967",
			"latitude": "42.71792",
			"address": "155 Arlington St",
			"assistance_type": "none"
		},
		{
			"store_name": "Kiara Market",
			"longitude": "-71.167282",
			"latitude": "42.716523",
			"address": "164 Park St",
			"assistance_type": "none"
		},
		{
			"store_name": "Bonao Market",
			"longitude": "-71.155277",
			"latitude": "42.713251",
			"address": "169 Newbury St",
			"assistance_type": "none"
		},
		{
			"store_name": "Yaport Market",
			"longitude": "-71.153206",
			"latitude": "42.697526",
			"address": "176 S Union St",
			"assistance_type": "none"
		},
		{
			"store_name": "Mellos Supermarket",
			"longitude": "-71.165257",
			"latitude": "42.716535",
			"address": "187 Lawrence St",
			"assistance_type": "none"
		},
		{
			"store_name": "Yashira Market",
			"longitude": "-71.16235",
			"latitude": "42.69437",
			"address": "193 S Broadway",
			"assistance_type": "none"
		},
		{
			"store_name": "La Vecina Meat Market",
			"longitude": "-71.170356",
			"latitude": "42.707461",
			"address": "202 Broadway",
			"assistance_type": "none"
		},
		{
			"store_name": "Jacqueline Meat Market & Supermarket",
			"longitude": "-71.163273",
			"latitude": "42.697476",
			"address": "233 Salem St",
			"assistance_type": "none"
		},
		{
			"store_name": "Esperalta Grocery",
			"longitude": "-71.169895",
			"latitude": "42.707886",
			"address": "205 Broadway",
			"assistance_type": "none"
		},
		{
			"store_name": "Mejia Market",
			"longitude": "-71.165605",
			"latitude": "42.716493",
			"address": "206 Lawrence",
			"assistance_type": "none"
		},
		{
			"store_name": "Chris's Convenience Store",
			"longitude": "-71.168202",
			"latitude": "42.710641",
			"address": "232 Hampshire St",
			"assistance_type": "none"
		},
		{
			"store_name": "Minaya Margarita",
			"longitude": "-71.153644",
			"latitude": "42.696179",
			"address": "241 S Union St",
			"assistance_type": "none"
		},
		{
			"store_name": "Arelis Market",
			"longitude": "-71.15338",
			"latitude": "42.696064",
			"address": "251 S Union St",
			"assistance_type": "none"
		},
		{
			"store_name": "La Nueva Equina Meat Market",
			"longitude": "-71.17014",
			"latitude": "42.706337",
			"address": "260 Lowell St",
			"assistance_type": "none"
		},
		{
			"store_name": "Pilon Market",
			"longitude": "-71.169211",
			"latitude": "42.711334",
			"address": "262 Hampshire St",
			"assistance_type": "none"
		},
		{
			"store_name": "Borinquen Grocery",
			"longitude": "-71.172709",
			"latitude": "42.716355",
			"address": "269 Park St",
			"assistance_type": "none"
		},
		{
			"store_name": "Costanza Meat Market",
			"longitude": "-71.167901",
			"latitude": "42.719176",
			"address": "271 Lawrence St",
			"assistance_type": "none"
		},
		{
			"store_name": "South Union Street Market",
			"longitude": "-71.153057",
			"latitude": "42.695414",
			"address": "280 S Union St",
			"assistance_type": "none"
		},
		{
			"store_name": "Sirois Food Products Inc",
			"longitude": "-71.171826",
			"latitude": "42.706331",
			"address": "291 Lowell St",
			"assistance_type": "none"
		},
		{
			"store_name": "Strella Market",
			"longitude": "-71.154603",
			"latitude": "42.717643",
			"address": "294 Prospect St",
			"assistance_type": "none"
		},
		{
			"store_name": "La Nueva Generacion",
			"longitude": "-71.172769",
			"latitude": "42.709863",
			"address": "296 Broadway",
			"assistance_type": "none"
		},
		{
			"store_name": "Macoris Variety",
			"longitude": "-71.169001",
			"latitude": "42.719519",
			"address": "296 Lawrence St",
			"assistance_type": "none"
		},
		{
			"store_name": "Guzman Yajaira",
			"longitude": "-71.164267",
			"latitude": "42.715408",
			"address": "3 Trenton St",
			"assistance_type": "none"
		},
		{
			"store_name": "El Pilon Market II",
			"longitude": "-71.158357",
			"latitude": "42.71966",
			"address": "304 Jackson St",
			"assistance_type": "none"
		},
		{
			"store_name": "La Conquista Groceries",
			"longitude": "-71.172337",
			"latitude": "42.710233",
			"address": "307 Broadway",
			"assistance_type": "none"
		},
		{
			"store_name": "Union Supermarket #4",
			"longitude": "-71.173894",
			"latitude": "42.716326",
			"address": "309 Park St",
			"assistance_type": "none"
		},
		{
			"store_name": "Riverside Specialty Foods Inc",
			"longitude": "-71.183986",
			"latitude": "42.688097",
			"address": "32 International Way",
			"assistance_type": "none"
		},
		{
			"store_name": "Kailey Market",
			"longitude": "-71.155039",
			"latitude": "42.718436",
			"address": "324 Prospect St",
			"assistance_type": "none"
		},
		{
			"store_name": "Los Hermanos' Market",
			"longitude": "-71.170145",
			"latitude": "42.720576",
			"address": "334 Lawrence St",
			"assistance_type": "none"
		},
		{
			"store_name": "Jacqueline's Grocery Store",
			"longitude": "-71.173235",
			"latitude": "42.705096",
			"address": "334 Lowell St",
			"assistance_type": "none"
		},
		{
			"store_name": "Stop 1 Supermarket",
			"longitude": "-71.171264",
			"latitude": "42.714147",
			"address": "352 Hampshire St",
			"assistance_type": "none"
		},
		{
			"store_name": "Fernando Super Market",
			"longitude": "-71.173774",
			"latitude": "42.711514",
			"address": "354 Broadway",
			"assistance_type": "none"
		},
		{
			"store_name": "Genesis Market",
			"longitude": "-71.174204",
			"latitude": "42.704722",
			"address": "360 Lowell St",
			"assistance_type": "none"
		},
		{
			"store_name": "Miguel Grocery",
			"longitude": "-71.173897",
			"latitude": "42.712077",
			"address": "373 Broadway ",
			"assistance_type": "none"
		},
		{
			"store_name": "Elizabeth Grocery",
			"longitude": "-71.175368",
			"latitude": "42.704559",
			"address": "385 Lowell St",
			"assistance_type": "none"
		},
		{
			"store_name": "Fantastic Four Market & Deli",
			"longitude": "-71.171425",
			"latitude": "42.715282",
			"address": "388 Hampshire St",
			"assistance_type": "none"
		},
		{
			"store_name": "Colony Foods Inc.",
			"longitude": "-71.174978",
			"latitude": "42.708182",
			"address": "439 Haverhill St",
			"assistance_type": "none"
		},
		{
			"store_name": "Quisiqueya Market",
			"longitude": "-71.171582",
			"latitude": "42.717832",
			"address": "460 Hampshire St",
			"assistance_type": "none"
		},
		{
			"store_name": "El Mercadito",
			"longitude": "-71.170186",
			"latitude": "42.715214",
			"address": "49 Walnut St",
			"assistance_type": "none"
		},
		{
			"store_name": "Alba Market",
			"longitude": "-71.157854",
			"latitude": "42.718444",
			"address": "51 Berkeley St",
			"assistance_type": "none"
		},
		{
			"store_name": "Bob's Grocery Store",
			"longitude": "-71.167747",
			"latitude": "42.691545",
			"address": "513 Andover St",
			"assistance_type": "none"
		},
		{
			"store_name": "Fama Market & Services Inc.",
			"longitude": "-71.176356",
			"latitude": "42.715241",
			"address": "517 Broadway",
			"assistance_type": "none"
		},
		{
			"store_name": "Ariass Inc",
			"longitude": "-71.159114",
			"latitude": "42.69938",
			"address": "54 Parker St",
			"assistance_type": "none"
		},
		{
			"store_name": "Popular Variety",
			"longitude": "-71.159119",
			"latitude": "42.69922",
			"address": "58 Parket St",
			"assistance_type": "none"
		},
		{
			"store_name": "Li'l Peach Grocerette",
			"longitude": "-71.17368",
			"latitude": "42.690322",
			"address": "603 Andover St",
			"assistance_type": "none"
		},
		{
			"store_name": "Tommy's Grocery",
			"longitude": "-71.179987",
			"latitude": "42.704213",
			"address": "64 Milton St",
			"assistance_type": "none"
		},
		{
			"store_name": "La Dioma Grocery",
			"longitude": "-71.170941",
			"latitude": "42.703677",
			"address": "656 Essex St",
			"assistance_type": "none"
		},
		{
			"store_name": "Vanessa's Market",
			"longitude": "-71.172898",
			"latitude": "42.716117",
			"address": "68 Willow St",
			"assistance_type": "none"
		},
		{
			"store_name": "Giorgios Convenience Inc",
			"longitude": "-71.171473",
			"latitude": "42.703362",
			"address": "680 Essex St",
			"assistance_type": "none"
		},
		{
			"store_name": "Valeria Market",
			"longitude": "-71.155914",
			"latitude": "42.71559",
			"address": "71 E Haverhill St",
			"assistance_type": "none"
		},
		{
			"store_name": "America's Food Basket",
			"longitude": "-71.150295",
			"latitude": "42.689576",
			"address": "73 Winthrop Ave",
			"assistance_type": "none"
		},
		{
			"store_name": "Altamira Market",
			"longitude": "71.172473",
			"latitude": "42.709401",
			"address": "88 Broadway",
			"assistance_type": "none"
		},
		{
			"store_name": "Emmunel Market",
			"longitude": "71.163056",
			"latitude": "42.716678",
			"address": "99 Park St",
			"assistance_type": "none"
		}
	]
}